[
    {
      "Pharmacy Name": "davaindia GENERIC PHARMACY",
      "Latitude": "23.051801681518555",
      "Longitude": "72.52490234375",
      "Full Address": "Shop No 2, Ground Floor, Shailly Complex, Thaltej, Opposite Surdhara Bunglow, Ahmedabad, Gujarat 380054",
      "Phone Number": "087996 39825",
      "Website": "https://thaltej.davaindia.com/",
      "Operating Hours": "Open · Closes 22:00",
      "Image URL": "https://www.bing.com/th?id=OLC.RXTWVwSJzfjZpA480x360&pid=Local",
      "Primary Category": "Pharmacy"
    },
    {
      "Pharmacy Name": "Healthmart Pharmacy",
      "Latitude": "22.993492126464844",
      "Longitude": "72.61416625976562",
      "Full Address": "Mahalaxmi Corner Vanijya Complex, Shop 2, Rambaugh Cross Road, Maninagar, Ahmedabad, Gujarat 380008",
      "Phone Number": "079 6811 1222",
      "Website": "https://chemist180.com/",
      "Operating Hours": "Open · Closes 21:00",
      "Image URL": "https://www.bing.com/th?id=OLC.SvPUeJfi1yWOyw480x360&pid=Local",
      "Primary Category": "Pharmacy"
    },
    {
      "Pharmacy Name": "Chemist180",
      "Latitude": "22.999099731445312",
      "Longitude": "72.60160064697266",
      "Full Address": "Basment, Mahalaxmi Corner, opp Sardar Patel Hospital, Rambaug, Maninagar, Amadavad, Gujarat, Gujarat 380008",
      "Phone Number": "079 6811 1222",
      "Website": "https://chemist180.com/",
      "Operating Hours": "",
      "Image URL": "https://www.bing.com/th?id=OLC.xUQ46BYwliijdA480x360&pid=Local",
      "Primary Category": "Pharmacy"
    },
    {
      "Pharmacy Name": "Medkart Pharmacy - Parimal",
      "Latitude": "23.017478942871094",
      "Longitude": "72.5582046508789",
      "Full Address": "No 1, Ground Floor, Sangini Complex, CG Road, Parimal, Near Doctor House, Ahmedabad, Gujarat 380006",
      "Phone Number": "072289 12333",
      "Website": "https://stores.medkart.in/medkart-pharmacy-parimal-ahmedabad-11342341/home",
      "Operating Hours": "Open · Closes 23:00",
      "Image URL": "https://www.bing.com/th?id=OLC.3TDRe3+tHEiWAg480x360&pid=Local",
      "Primary Category": "Pharmacy"
    },
    {
      "Pharmacy Name": "Care Pharmacy Maninagar I",
      "Latitude": "22.983261108398438",
      "Longitude": "72.61405181884766",
      "Full Address": "3, Parth Apartment Near Vallabhvadi, Bhairavnath Rd, Maninagar, Ahmedabad, Gujarat",
      "Phone Number": "080000 01410",
      "Website": "http://www.carepharmacy.co/",
      "Operating Hours": "",
      "Image URL": "",
      "Primary Category": "Pharmacy"
    },
    {
      "Pharmacy Name": "PharmEasy Store-Shrit Medicine",
      "Latitude": "23.058181762695312",
      "Longitude": "72.56008911132812",
      "Full Address": "16, Ground Floor, Shubhlaxmi Complex, opp. Sanghavi High School, Rang Jyot Society, Naranpura, Ahmedabad, Gujarat",
      "Phone Number": "",
      "Website": "https://pharmeasy.in/franchise-stores",
      "Operating Hours": "Open · Closes 22:00",
      "Image URL": "",
      "Primary Category": "Pharmacy"
    },
    {
      "Pharmacy Name": "Apollo Pharmacy Govindwadi Isanpur",
      "Latitude": "22.983684539794922",
      "Longitude": "72.60033416748047",
      "Full Address": "No. 11&12, Radhe Kishan Arcade, Ring Rd, Isanpur, Nr. Govindwadi, Ahmedabad, Gujarat 382445",
      "Phone Number": "070430 00432",
      "Website": "https://www.apollopharmacy.in/",
      "Operating Hours": "Open · Closes 23:00",
      "Image URL": "https://www.bing.com/th?id=OLC.eWGeikPW8Lbkhg480x360&pid=Local",
      "Primary Category": "Pharmacy"
    },
    {
      "Pharmacy Name": "Unjha Pharmacy",
      "Latitude": "23.017356872558594",
      "Longitude": "72.5641860961914",
      "Full Address": "13 Jain Society, Ahmedabad, Gujarat 380006",
      "Phone Number": "02717 297 701",
      "Website": "https://unjha.in/",
      "Operating Hours": "",
      "Image URL": "https://www.bing.com/th?id=OLC.ujyhLIlP529/XQ480x360&pid=Local",
      "Primary Category": "Pharmacy"
    },
    {
      "Pharmacy Name": "Medkart Pharmacy - Rambaug, Maninagar",
      "Latitude": "22.99973487854004",
      "Longitude": "72.60234832763672",
      "Full Address": "Shop No 1, KB Complex, LG Hospital Road, Maninagar, Opposite Ramkrishna Party Plot, Ahmedabad, Gujarat 380008",
      "Phone Number": "072260 98888",
      "Website": "https://stores.medkart.in/medkart-pharmacy-lghospitalroad-maninagar-ahmedabad-11342760/home",
      "Operating Hours": "Open · Closes 23:00",
      "Image URL": "https://www.bing.com/th?id=OLC.VlqeRHT+J4HCNA480x360&pid=Local",
      "Primary Category": "Pharmacy"
    },
    {
      "Pharmacy Name": "Apollo Pharmacy Narayan Nagar Paldi",
      "Latitude": "23.00569725036621",
      "Longitude": "72.56453704833984",
      "Full Address": "No.4, G/F, Narayannagar Rd, Fatehpura, Opp. Municipal School, Ahmedabad, Gujarat 380007",
      "Phone Number": "063588 65300",
      "Website": "https://www.apollopharmacy.in/",
      "Operating Hours": "Open · Closes 23:00",
      "Image URL": "https://www.bing.com/th?id=OLC.eWGeikPW8Lbkhg480x360&pid=Local",
      "Primary Category": "Pharmacy"
    },
    {
      "Pharmacy Name": "Apollo Pharmacy Vastrapur Ahmedabad",
      "Latitude": "23.009843826293945",
      "Longitude": "72.55970764160156",
      "Full Address": "No. 7, Chinmay Crystal Tower, Bodakdev Rd, Vastrapur, Opp. Vastrapur Lake, Ahmedabad, Gujarat 380015",
      "Phone Number": "076000 41615",
      "Website": "https://www.apollopharmacy.in/",
      "Operating Hours": "Open · Closes 23:00",
      "Image URL": "https://www.bing.com/th?id=OLC.eWGeikPW8Lbkhg480x360&pid=Local",
      "Primary Category": "Pharmacy"
    },
    {
      "Pharmacy Name": "Apollo Pharmacy Maninagar",
      "Latitude": "22.994665145874023",
      "Longitude": "72.61241149902344",
      "Full Address": "No. 2, GF, Bhairavnath Rd, Maninagar, Opp. Swaminarayan Temple, Ahmedabad, Gujarat 380008",
      "Phone Number": "072270 38711",
      "Website": "https://www.apollopharmacy.in/",
      "Operating Hours": "Open · Closes 23:00",
      "Image URL": "https://www.bing.com/th?id=OLC.eWGeikPW8Lbkhg480x360&pid=Local",
      "Primary Category": "Pharmacy"
    },
    {
      "Pharmacy Name": "Medkart Pharmacy - Jayhind Corss Road, Maninagar",
      "Latitude": "22.994998931884766",
      "Longitude": "72.60755157470703",
      "Full Address": "SN 6, Pramukh Palace, Jai Hind Cross Rd, Daxini Society Rd, Maninagar, Opp. Union Bank of India, Ahmedabad, Gujarat 380008",
      "Phone Number": "074358 30830",
      "Website": "https://stores.medkart.in/medkart-pharmacy-daxinisocietyroad-maninagar-ahmedabad-11342763/home",
      "Operating Hours": "Open · Closes 23:00",
      "Image URL": "https://www.bing.com/th?id=OLC.3TDRe3+tHEiWAg480x360&pid=Local",
      "Primary Category": "Pharmacy"
    },
    {
      "Pharmacy Name": "Apollo Pharmacy Uttam Nagar",
      "Latitude": "22.991117477416992",
      "Longitude": "72.60357666015625",
      "Full Address": "No.3, GF, Radha Mandir Tower, Isanpur Rd, Maninagar, Nr. Kapasi Super Market, Ahmedabad, Gujarat 380008",
      "Phone Number": "074860 06603",
      "Website": "https://www.apollopharmacy.in/",
      "Operating Hours": "Open · Closes 23:00",
      "Image URL": "https://www.bing.com/th?id=OLC.eWGeikPW8Lbkhg480x360&pid=Local",
      "Primary Category": "Pharmacy"
    },
    {
      "Pharmacy Name": "Medkart Pharmacy - Isanpur",
      "Latitude": "22.983694076538086",
      "Longitude": "72.60077667236328",
      "Full Address": "Shop No 1/2 B, Rachna Maninagar Society, Isanpur, Besides Apollo Pharmacy, Near Vadilal Happinezz, Ahmedabad, Gujarat 382443",
      "Phone Number": "093138 06799",
      "Website": "https://stores.medkart.in/medkart-pharmacy-isanpur-ahmedabad-11350122/home",
      "Operating Hours": "Open · Closes 23:00",
      "Image URL": "https://www.bing.com/th?id=OLC.3TDRe3+tHEiWAg480x360&pid=Local",
      "Primary Category": "Pharmacy"
    },
    {
      "Pharmacy Name": "Care Pharmacy",
      "Latitude": "23.024803161621094",
      "Longitude": "72.56793975830078",
      "Full Address": "Wall Street 2, Ellis Bridge, Ahmedabad, Gujarat",
      "Phone Number": "080000 80793",
      "Website": "https://www.carepharmacy.co/",
      "Operating Hours": "",
      "Image URL": "",
      "Primary Category": "Pharmacy"
    },
    {
      "Pharmacy Name": "Apollo Pharmacy IP6",
      "Latitude": "23.01927375793457",
      "Longitude": "72.5718765258789",
      "Full Address": "6th Floor, Room#36, SVP Hospital, Ellis Bridge, Ahmedabad, Gujarat 380006",
      "Phone Number": "063588 65306",
      "Website": "https://www.apollopharmacy.in/",
      "Operating Hours": "Open 24 hours",
      "Image URL": "",
      "Primary Category": "Pharmacy"
    },
    {
      "Pharmacy Name": "Zeelab Pharmacy",
      "Latitude": "23.00010871887207",
      "Longitude": "72.6049575805664",
      "Full Address": "34, Arbuda SOC, opp. L.G Hospital, Maninagar, Ahmedabad, Gujarat",
      "Phone Number": "",
      "Website": "https://zeelabpharmacy.com/",
      "Operating Hours": "",
      "Image URL": "https://www.bing.com/th?id=OLC.FVR4DaGAm4v/jQ480x360&pid=Local",
      "Primary Category": "Pharmacy"
    },
    {
      "Pharmacy Name": "Amardeep Pharmacy",
      "Latitude": "23.018510818481445",
      "Longitude": "72.56465148925781",
      "Full Address": "65/b, Pritamnagar Society, Ahmedabad, Gujarat 380006",
      "Phone Number": "079 2644 0081",
      "Website": "",
      "Operating Hours": "",
      "Image URL": "",
      "Primary Category": "Pharmacy"
    },
    {
      "Pharmacy Name": "Om Medical",
      "Latitude": "23.017696380615234",
      "Longitude": "72.55815887451172",
      "Full Address": "A-8, Celler, Doctor House, Nr. Parimal Crossing, Null, Null 380006",
      "Phone Number": "079 2646 7004",
      "Website": "",
      "Operating Hours": "",
      "Image URL": "",
      "Primary Category": "Pharmacy"
    },
    {
      "Pharmacy Name": "Aarna Pharmacy",
      "Latitude": "23.01351547241211",
      "Longitude": "72.55860137939453",
      "Full Address": "Opp Suvidha Shopping Centre, Aash Aarna Health Care, Paldi, Ahmedabad, Gujarat 380007",
      "Phone Number": "",
      "Website": "",
      "Operating Hours": "",
      "Image URL": "",
      "Primary Category": "Pharmacy"
    },
    {
      "Pharmacy Name": "S Shah Pharmacy",
      "Latitude": "23.017606735229492",
      "Longitude": "72.55781555175781",
      "Full Address": "201, Second Floor, SUR Ganga, Silver Brook, OPP Doctor House, Ellis Bridge, Ahmedabad, Gujarat 380006",
      "Phone Number": "",
      "Website": "",
      "Operating Hours": "",
      "Image URL": "",
      "Primary Category": "Pharmacy"
    },
    {
      "Pharmacy Name": "Pearl Pharma",
      "Latitude": "23.0213680267334",
      "Longitude": "72.5560531616211",
      "Full Address": "Nandkutir Complex, 1, First Floor, Behind Doctor House, NR, Parimal Garden, Ellis Bridge, Ahmedabad, Gujarat 380006",
      "Phone Number": "",
      "Website": "",
      "Operating Hours": "",
      "Image URL": "",
      "Primary Category": "Pharmacy"
    },
    {
      "Pharmacy Name": "Star Pharmacy",
      "Latitude": "23.03734588623047",
      "Longitude": "72.62954711914062",
      "Full Address": "Arvind Estate, Shed NO 2, 0, NR India LAB, Bapunagar, Ahmedabad, Gujarat 380024",
      "Phone Number": "",
      "Website": "",
      "Operating Hours": "",
      "Image URL": "",
      "Primary Category": "Pharmacy"
    },
    {
      "Pharmacy Name": "Zion Pharmacy",
      "Latitude": "22.978504180908203",
      "Longitude": "72.62031555175781",
      "Full Address": "10B Shree Complex Cadila, Punit Nagar Ghodasar, Ahmedabad, Gujarat 380050",
      "Phone Number": "",
      "Website": "",
      "Operating Hours": "",
      "Image URL": "",
      "Primary Category": "Pharmacy"
    },
    {
      "Pharmacy Name": "Vijay Medicines",
      "Latitude": "23.01604461669922",
      "Longitude": "72.55463409423828",
      "Full Address": "5, Anand Complex, Opp Amritjyoti School Hirabaug, Ambawadi, Ahmedabad, Gujarat 380015",
      "Phone Number": "098984 93953",
      "Website": "",
      "Operating Hours": "",
      "Image URL": "",
      "Primary Category": "Pharmacy"
    },
    {
      "Pharmacy Name": "Maya Medicines",
      "Latitude": "23.016551971435547",
      "Longitude": "72.5536880493164",
      "Full Address": "Doctor House, Ahmedabad, Gujarat 380006",
      "Phone Number": "098253 21996",
      "Website": "",
      "Operating Hours": "",
      "Image URL": "",
      "Primary Category": "Pharmacy"
    },
    {
      "Pharmacy Name": "Health Care Pharmacy",
      "Latitude": "23.01262092590332",
      "Longitude": "72.55479431152344",
      "Full Address": "Paldi Marg, Sanjivani Hospital, Paldi, Ahmedabad, Gujarat 380007",
      "Phone Number": "",
      "Website": "",
      "Operating Hours": "",
      "Image URL": "",
      "Primary Category": "Pharmacy"
    },
    {
      "Pharmacy Name": "Pramukh Pharmacy",
      "Latitude": "23.019611358642578",
      "Longitude": "72.56010437011719",
      "Full Address": "18, Ground Floor, Ellis Bridge Shopping Center, Ellis Bridge, Ahmedabad, Gujarat 380006",
      "Phone Number": "",
      "Website": "",
      "Operating Hours": "",
      "Image URL": "",
      "Primary Category": "Pharmacy"
    },
    {
      "Pharmacy Name": "Zeel Medical Stores",
      "Latitude": "23.01947593688965",
      "Longitude": "72.55286407470703",
      "Full Address": "GF/5, 5, Shri Krishna Complex, Bhudarpura Road, Ambavadi, Opp Uco Bank, Ahmedabad, Gujarat 380006",
      "Phone Number": "079 2656 5854",
      "Website": "",
      "Operating Hours": "",
      "Image URL": "",
      "Primary Category": "Pharmacy"
    },
    {
      "Pharmacy Name": "Samundra Pharma",
      "Latitude": "23.021703720092773",
      "Longitude": "72.55609893798828",
      "Full Address": "C-4, Akshat Appartment, Tulsibag, Parimal Garden, Ambawadi, Ahmedabad, Gujarat 380006",
      "Phone Number": "",
      "Website": "",
      "Operating Hours": "",
      "Image URL": "",
      "Primary Category": "Pharmacy"
    },
    {
      "Pharmacy Name": "Ganesh Medical",
      "Latitude": "23.019365310668945",
      "Longitude": "72.55423736572266",
      "Full Address": "OPP Chhadavad Police Chowki, 746/4/2, Ground Floor, Hirabaug, Ambavadi, Ahmedabad, Gujarat 380006",
      "Phone Number": "098796 78923",
      "Website": "",
      "Operating Hours": "",
      "Image URL": "",
      "Primary Category": "Pharmacy"
    },
    {
      "Pharmacy Name": "Gajanan Chemist",
      "Latitude": "23.01944923400879",
      "Longitude": "72.55756378173828",
      "Full Address": "G/6, Dhiraj Avenue, Ahmedabad, Gujarat 380006",
      "Phone Number": "079 2640 4201",
      "Website": "",
      "Operating Hours": "",
      "Image URL": "",
      "Primary Category": "Drugstore"
    },
    {
      "Pharmacy Name": "Pathik Chemist",
      "Latitude": "23.01385498046875",
      "Longitude": "72.56334686279297",
      "Full Address": "Pathik, Dasaporwad Society, Behind Paldi Bus Stop, Paldi, Ahmedabad, Gujarat 380007",
      "Phone Number": "079 2657 8539",
      "Website": "",
      "Operating Hours": "",
      "Image URL": "",
      "Primary Category": "Pharmacy"
    },
    {
      "Pharmacy Name": "Healthcare Pharmacy",
      "Latitude": "23.014673233032227",
      "Longitude": "72.56407928466797",
      "Full Address": "Sankalp Square-2, 301, Near Jalaram Mandir, Kalgi Char Rasta, Paldi, Ahmedabad, Gujarat 380007",
      "Phone Number": "",
      "Website": "",
      "Operating Hours": "",
      "Image URL": "",
      "Primary Category": "Pharmacy"
    },
    {
      "Pharmacy Name": "Jay Chemist",
      "Latitude": "23.01349639892578",
      "Longitude": "72.560791015625",
      "Full Address": "Swastik Residency NR Opera SOC, 102, 1, Paldi, Ahmedabad, Gujarat 380007",
      "Phone Number": "099045 12670",
      "Website": "",
      "Operating Hours": "",
      "Image URL": "",
      "Primary Category": "Pharmacy"
    }
  ]